City_ID,City,Lat,Lng,Max Temp,Humidity,Cloudiness,Wind Speed,Country,Date
0,sarangani,5.4033,125.4636,27.35,77,23,9.28,PH,1712791178
1,san antonio de pale,-1.4014,5.6325,28.29,81,82,4.54,GQ,1712791096
2,sitka,57.0531,-135.33,6.94,70,100,5.14,US,1712791046
3,ajdabiya,30.7554,20.2263,15.86,62,0,4.0,LY,1712791179
4,adamstown,-25.066,-130.1015,22.67,85,100,6.84,PN,1712791006
5,kapuskasing,49.4169,-82.4331,13.05,54,40,4.12,CA,1712791179
6,usogorsk,63.4106,48.6872,1.48,100,100,3.99,RU,1712791079
7,port alfred,-33.5906,26.891,15.1,87,100,0.89,ZA,1712791179
8,grytviken,-54.2811,-36.5092,0.94,90,14,5.44,GS,1712791004
9,hermanus,-34.4187,19.2345,14.89,70,22,8.96,ZA,1712791009
10,ilulissat,69.2167,-51.1,-5.99,58,100,2.06,GL,1712791178
11,santa maria da vitoria,-13.3947,-44.1886,26.47,61,81,0.56,BR,1712791179
12,isokyro,63.0117,22.3333,5.91,88,91,6.41,FI,1712791036
13,hawaiian paradise park,19.5933,-154.9731,26.6,73,100,4.12,US,1712791179
14,nagqu,31.5,92.0,-7.94,79,100,1.15,CN,1712791179
15,edinburgh of the seven seas,-37.0676,-12.3116,17.81,81,82,3.04,SH,1712791007
16,woolgoolga,-30.1106,153.2007,21.93,61,89,7.7,AU,1712791180
17,tiksi,71.6872,128.8694,-15.89,95,100,2.63,RU,1712791129
18,geraldton,-28.7667,114.6,23.23,35,43,6.69,AU,1712791138
19,petropavlovsk-kamchatsky,53.0452,158.6483,3.33,70,20,16.09,RU,1712791008
20,port lincoln,-34.7333,135.8667,16.26,67,56,3.14,AU,1712791007
21,anzio,41.4853,12.6179,12.7,68,0,3.88,IT,1712791180
22,bethel,41.3712,-73.414,17.98,72,100,2.57,US,1712791005
23,zuwarah,32.9312,12.082,16.34,60,100,7.06,LY,1712791180
24,saldanha,-33.0117,17.9442,15.17,74,0,7.23,ZA,1712791180
25,anadyr,64.75,177.4833,-7.72,78,40,6.0,RU,1712790917
26,port-aux-francais,-49.35,70.2167,7.44,96,100,3.79,TF,1712791120
27,booue,-0.0921,11.9385,23.03,99,100,1.12,GA,1712791037
28,iskateley,67.6803,53.1512,-9.02,92,100,7.01,RU,1712791047
29,yellowknife,62.456,-114.3525,1.9,82,20,3.6,CA,1712791121
30,tadine,-21.55,167.8833,28.21,76,94,2.29,NC,1712791181
31,port macquarie,-31.4333,152.9167,21.61,66,50,5.43,AU,1712790651
32,stanley,54.868,-1.6985,12.1,87,75,5.66,GB,1712791181
33,haiku-pauwela,20.9219,-156.3051,29.01,61,20,8.23,US,1712791068
34,okhotsk,59.3833,143.3,-4.01,67,4,6.6,RU,1712791181
35,cannonvale,-20.2833,148.7,22.66,56,9,6.68,AU,1712791181
36,blackfoot,43.1905,-112.345,16.14,34,28,2.64,US,1712791181
37,cuyamel,15.6667,-88.2,33.34,65,83,3.42,HN,1712791181
38,olonkinbyen,70.9221,-8.7187,-6.54,72,100,5.46,SJ,1712791151
39,roma,43.2128,-75.4557,15.4,89,100,3.6,US,1712791181
40,utrik,11.2278,169.8474,26.73,77,100,9.1,MH,1712791182
41,punta arenas,-53.15,-70.9167,7.06,76,75,8.75,CL,1712791034
42,ampanihy,-24.7,44.75,23.18,88,67,5.21,MG,1712791182
43,tolanaro,-25.0319,46.9987,23.5,90,94,2.22,MG,1712791182
44,jinxiang,27.4327,120.6062,15.4,88,76,1.38,CN,1712791182
45,tosontsengel,48.7567,98.2839,1.95,49,84,6.4,MN,1712791155
46,elverum,60.8819,11.5623,-0.5,91,65,1.09,NO,1712791182
47,newman,37.3138,-121.0208,27.13,49,88,2.24,US,1712791065
48,waitangi,-43.9535,-176.5597,17.68,89,83,4.02,NZ,1712791005
49,nemuro,43.3236,145.575,4.06,66,60,3.54,JP,1712791035
50,klyuchi,52.2667,79.1667,2.95,97,100,0.72,RU,1712791182
51,pontianak,-0.0333,109.3333,23.99,100,75,2.06,ID,1712791183
52,abu al matamir,30.9102,30.1744,14.66,85,19,1.39,EG,1712791183
53,iqaluit,63.7506,-68.5145,-5.1,93,58,0.58,CA,1712790935
54,college,64.8569,-147.8028,7.18,42,20,2.57,US,1712791156
55,gornyye klyuchi,45.25,133.5,6.76,58,99,3.65,RU,1712791183
56,amravati,20.9333,77.75,25.54,57,85,4.37,IN,1712791183
57,ribeira grande,38.5167,-28.7,16.54,100,75,6.17,PT,1712791132
58,blackmans bay,-43.0167,147.3167,13.18,68,52,0.89,AU,1712791011
59,umba,66.6871,34.3429,2.01,100,100,4.75,RU,1712791183
60,new plymouth,-39.0667,174.0833,19.89,85,100,9.92,NZ,1712791036
61,forster,-32.1667,152.5167,16.72,75,82,6.14,AU,1712790914
62,malvan,16.0667,73.4667,26.75,72,6,5.6,IN,1712791184
63,puerto ayora,-0.7393,-90.3518,26.42,95,66,0.45,EC,1712791184
64,new norfolk,-42.7826,147.0587,14.28,66,70,0.43,AU,1712791184
65,san fernando de apure,7.8878,-67.4724,34.21,29,38,2.06,VE,1712791184
66,vallenar,-28.5708,-70.7581,17.55,59,100,1.87,CL,1712790976
67,papatowai,-46.5619,169.4708,10.96,98,100,5.39,NZ,1712791184
68,lundazi,-12.2929,33.1782,18.9,89,95,1.68,ZM,1712791184
69,antsiranana,-12.2787,49.2917,25.5,90,61,3.7,MG,1712791184
70,bilibino,68.0546,166.4372,-14.53,83,69,0.61,RU,1712791168
71,thompson,55.7435,-97.8558,0.45,100,100,2.17,CA,1712791018
72,langepas,61.2544,75.2124,-21.35,98,94,1.57,RU,1712791184
73,udachny,66.4167,112.4,-24.83,94,92,9.54,RU,1712791184
74,avarua,-21.2078,-159.775,28.03,89,75,8.75,CK,1712791168
75,filey,54.21,-0.2892,13.82,85,100,4.02,GB,1712791185
76,luanda,-8.8368,13.2343,26.01,83,37,4.43,AO,1712791078
77,kourou,5.1552,-52.6478,28.03,89,95,3.98,GF,1712791040
78,margaret river,-33.95,115.0667,13.52,76,11,5.04,AU,1712791185
79,ghadamis,30.1337,9.5007,21.07,36,100,7.24,LY,1712791185
80,cabo san lucas,22.8909,-109.9124,24.73,48,40,5.14,MX,1712790677
81,nova vicosa,-17.8919,-39.3719,25.9,83,7,2.77,BR,1712791185
82,atafu village,-8.5421,-172.5159,30.01,75,79,4.61,TK,1712791022
83,ushachy,55.1786,28.6035,10.95,73,100,4.97,BY,1712791185
84,afaahiti,-17.75,-149.2833,29.93,83,100,8.19,PF,1712791171
85,sal rei,16.1833,-22.9167,21.76,77,11,6.01,CV,1712791185
86,enewetak,11.3474,162.3373,27.11,81,100,9.98,MH,1712791034
87,invercargill,-46.4,168.35,10.01,98,100,7.15,NZ,1712791109
88,upata,8.0086,-62.3989,29.55,45,47,4.6,VE,1712791186
89,songjianghe,42.1859,127.479,7.96,78,100,4.11,CN,1712791186
90,montpon-menesterol,45.0,0.1667,9.25,88,89,1.59,FR,1712791186
91,quellon,-43.1167,-73.6167,8.95,83,0,3.65,CL,1712790980
92,las khorey,11.1595,48.1967,27.37,76,0,1.53,SO,1712791186
93,constantia,44.1833,28.65,10.38,62,3,3.74,RO,1712791019
94,codajas,-3.8367,-62.0569,24.62,98,59,0.76,BR,1712791186
95,plastun,44.7561,136.2939,7.39,37,64,0.3,RU,1712791186
96,miramichi,47.0043,-65.4654,1.53,83,11,3.36,CA,1712791186
97,hadibu,12.65,54.0333,26.75,77,6,2.7,YE,1712791168
98,valparaiso,-33.0393,-71.6273,16.67,61,75,2.57,CL,1712791097
99,lebu,-37.6167,-73.65,11.8,76,93,1.34,CL,1712791109
100,mossendjo,-2.9506,12.7261,21.98,100,100,1.0,CG,1712791187
101,jayapura,-2.5333,140.7,25.66,95,99,2.26,ID,1712791187
102,kas,36.2018,29.6377,17.67,69,2,0.82,TR,1712791187
103,longyearbyen,78.2186,15.6401,-15.09,72,0,5.14,SJ,1712791187
104,nuuk,64.1835,-51.7216,-6.05,79,83,1.92,GL,1712791187
105,pasni,25.2631,63.471,25.74,71,96,1.48,PK,1712791187
106,hamilton,39.1834,-84.5333,17.35,95,100,1.79,US,1712791099
107,hasaki,35.7333,140.8333,14.05,57,30,3.52,JP,1712791131
108,nar'yan-mar,67.6713,53.087,-8.9,93,100,7.03,RU,1712791130
109,leninskoye,41.7589,69.3864,10.19,59,30,1.23,KZ,1712791187
110,vorgashor,67.5833,63.95,-24.44,100,100,2.24,RU,1712791175
111,fort bragg,35.139,-79.006,24.91,54,0,4.63,US,1712791149
112,lander,42.833,-108.7307,12.45,40,20,2.71,US,1712791188
113,begowal,31.6167,75.5167,22.27,21,100,2.44,IN,1712791157
114,nawabganj,24.5911,88.271,26.66,23,77,2.56,BD,1712791188
115,taulaga,-11.0553,-171.0883,29.81,77,55,4.19,AS,1712791188
116,san juan del sur,11.2529,-85.8705,30.12,79,40,3.09,NI,1712791188
117,chichli,22.8333,78.8167,25.44,47,100,3.15,IN,1712791188
118,ushuaia,-54.8,-68.3,1.94,97,100,1.71,AR,1712790954
119,sisimiut,66.9395,-53.6735,-5.72,74,100,1.73,GL,1712791019
120,kharovsk,59.9642,40.1912,10.64,83,100,5.4,RU,1712791189
121,el calafate,-50.3408,-72.2768,6.61,76,22,1.13,AR,1712791189
122,wailua homesteads,22.0669,-159.378,28.24,69,0,3.6,US,1712791174
123,ebon,4.582,168.6964,27.85,83,100,8.72,MH,1712791189
124,saipan,15.1355,145.701,29.39,70,40,7.72,MP,1712791015
125,shizuishan,39.2333,106.7694,12.5,27,0,3.32,CN,1712791189
126,huarmey,-10.0681,-78.1522,23.25,81,80,4.06,PE,1712791189
127,san rafael del sur,11.8485,-86.4384,34.54,51,88,3.25,NI,1712791189
128,puerto san jose,13.9256,-90.8244,30.54,63,79,4.41,GT,1712791189
129,qamdo,31.1667,97.2333,-4.58,84,30,0.27,CN,1712791189
130,puerto leguizamo,-0.1934,-74.7819,24.4,94,86,0.66,CO,1712791190
131,nezhinka,51.7676,55.3694,5.09,100,0,1.0,RU,1712791190
132,kodiak,57.79,-152.4072,1.73,55,75,3.6,US,1712791127
133,otaru,43.1894,141.0022,7.91,47,9,0.6,JP,1712791190
134,opuwo,-18.0607,13.84,19.18,51,0,0.86,NA,1712791190
135,telciu,47.4333,24.4,14.03,82,13,2.82,RO,1712791190
136,khanbari,27.3747,87.2039,19.58,26,0,1.52,NP,1712791190
137,gotsucho,35.0,132.2167,13.36,72,100,3.49,JP,1712791190
138,lompoc,34.6391,-120.4579,23.77,67,0,7.2,US,1712790928
139,bhadarwah,32.9833,75.7167,7.52,64,98,1.22,IN,1712791190
140,aasiaat,68.7098,-52.8699,-8.62,81,100,2.09,GL,1712791150
141,east london,-33.0153,27.9116,16.28,74,91,7.84,ZA,1712791190
142,west island,-12.1568,96.8225,26.99,74,77,4.12,CC,1712791013
143,eureka,40.8021,-124.1637,25.97,83,100,5.32,US,1712790984
144,jamestown,42.097,-79.2353,16.77,63,100,0.0,US,1712791191
145,whitehorse,60.7161,-135.0538,2.64,70,100,3.13,CA,1712791014
146,katsuura,35.1333,140.3,13.79,65,45,3.54,JP,1712791191
147,kailua-kona,19.6406,-155.9956,26.98,79,40,5.14,US,1712791191
148,sungai penuh,-2.0833,101.3833,18.57,94,100,2.54,ID,1712791191
149,ripoll,42.2006,2.1903,8.01,75,1,1.34,ES,1712791191
150,viedma,-40.8135,-62.9967,12.17,52,68,2.8,AR,1712790774
151,naze,28.3667,129.4833,20.51,65,100,4.03,JP,1712791191
152,bamboo flat,11.7,92.7167,27.52,79,100,2.51,IN,1712791191
153,olyokminsk,60.3736,120.4264,-2.26,80,98,1.91,RU,1712791192
154,st. john's,47.5649,-52.7093,-1.13,81,20,3.6,CA,1712791148
155,caleta de carquin,-11.0925,-77.6267,22.18,85,95,4.23,PE,1712791192
156,darwin,-12.4611,130.8418,24.41,64,0,4.63,AU,1712790842
157,albany,42.6001,-73.9662,12.07,90,100,1.34,US,1712791015
158,singera,46.9131,28.9775,11.39,76,0,1.54,MD,1712791192
159,businga,3.3333,20.8833,23.9,82,82,1.31,CD,1712791192
160,diok'nisi,41.6293,42.3917,9.31,98,100,0.85,GE,1712791192
161,negreira,42.904,-8.7427,12.29,81,99,1.63,ES,1712791192
162,quila,24.4228,-107.22,29.92,17,36,5.04,MX,1712791192
163,puerto natales,-51.7236,-72.4875,3.64,90,14,2.55,CL,1712790978
164,keflavik,64.0049,-22.5624,4.95,75,100,6.17,IS,1712791192
165,fale old settlement,-9.3852,-171.2468,30.06,75,59,4.67,TK,1712791080
166,nogent-le-rotrou,48.3333,1.0,10.36,90,99,3.86,FR,1712791192
167,inarajan village,13.2736,144.7484,29.08,84,93,8.14,GU,1712791017
168,ancud,-41.8697,-73.8203,10.19,72,1,1.77,CL,1712791193
169,pauini,-7.7136,-66.9764,23.89,97,90,0.93,BR,1712791193
170,santa cruz,-17.8,-63.1667,27.03,78,75,5.14,BO,1712791193
171,rio grande,-32.035,-52.0986,20.06,77,100,8.85,BR,1712790954
172,bredasdorp,-34.5322,20.0403,14.82,66,33,6.37,ZA,1712791012
173,eyl,7.9803,49.8164,27.19,72,60,3.63,SO,1712791193
174,papao,-17.75,-149.55,30.82,83,98,9.17,PF,1712791058
175,auki,-8.7676,160.7034,30.49,67,100,0.65,SB,1712791193
176,labytnangi,66.6572,66.4183,-28.68,100,82,0.82,RU,1712791132
177,kupang,-10.1667,123.5833,27.32,89,20,1.03,ID,1712791193
178,diamantino,-14.4086,-56.4461,23.95,93,98,1.6,BR,1712791193
179,colesberg,-30.72,25.0972,9.96,78,0,7.35,ZA,1712791194
180,trinidad,-14.8333,-64.9,27.99,83,75,2.06,BO,1712791078
181,acarau,-2.8856,-40.12,26.62,84,100,3.57,BR,1712791194
182,dashitou,43.3067,128.5114,7.56,83,100,4.7,CN,1712791194
183,portland,45.5234,-122.6762,20.11,41,75,2.57,US,1712791017
184,port elizabeth,-33.918,25.5701,14.62,80,94,1.34,ZA,1712791017
185,howrah,22.5892,88.3103,25.0,83,40,0.0,IN,1712791194
186,broome,42.2506,-75.833,15.5,95,100,1.54,US,1712791194
187,beska,45.1297,20.0661,12.86,78,100,1.79,RS,1712791194
188,santa vitoria do palmar,-33.5189,-53.3681,17.39,61,100,5.41,BR,1712790975
189,belyy yar,53.6039,91.3903,2.94,93,0,4.0,RU,1712791194
190,kumertau,52.7667,55.7833,3.36,98,76,2.23,RU,1712791194
191,swift current,50.2834,-107.8014,11.45,24,75,11.83,CA,1712791195
192,raigarh,21.9,83.4,27.51,40,75,1.54,IN,1712790983
193,freeport,40.6576,-73.5832,15.82,86,100,4.47,US,1712791027
194,isafjordur,66.0755,-23.124,-4.3,88,39,2.26,IS,1712791177
195,beau vallon,-20.4189,57.6953,26.13,83,75,2.06,MU,1712791195
196,mugia,43.1041,-9.2179,12.73,71,100,5.09,ES,1712791195
197,kavieng,-2.5744,150.7967,27.34,82,100,4.65,PG,1712791008
198,boa vista,2.8197,-60.6733,32.99,43,20,5.14,BR,1712790935
199,koulikoro,14.0,-7.75,31.51,27,56,0.77,ML,1712791195
200,vuktyl,63.8567,57.3094,-7.16,97,83,1.79,RU,1712791195
201,nizao,18.25,-70.2,29.15,70,7,7.02,DO,1712790976
202,belmonte,-15.8631,-38.8828,25.87,85,12,2.36,BR,1712791195
203,kendari,-3.945,122.4989,24.61,93,97,0.76,ID,1712791196
204,tofol,5.3248,163.0078,28.88,84,100,5.14,FM,1712791196
205,kolonia,50.9333,6.95,10.46,72,0,1.54,DE,1712791196
206,jumla,29.2747,82.1838,3.29,47,0,2.37,NP,1712791196
207,ta`u,-14.2336,-169.5144,29.24,76,8,3.63,AS,1712791165
208,flying fish cove,-10.4217,105.6791,25.82,83,40,2.57,CX,1712791018
209,figuig (centre),32.1089,-1.2286,17.67,13,41,1.55,MA,1712791196
210,georgetown,5.4112,100.3354,27.19,89,20,1.54,MY,1712791014
211,meadow lakes,61.6247,-149.6011,5.53,71,0,3.6,US,1712791196
212,fort mcmurray,56.7268,-111.381,10.77,50,75,4.63,CA,1712791148
213,qaqortoq,60.7167,-46.0333,-5.02,98,82,1.5,GL,1712791032
214,rajpipla,21.8667,73.5,28.37,49,100,2.76,IN,1712791197
215,westport,41.1415,-73.3579,16.9,84,100,6.69,US,1712791197
216,kenai,60.5544,-151.2583,3.05,64,0,3.6,US,1712791071
217,uturoa,-16.7333,-151.4333,29.02,78,21,8.3,PF,1712791193
218,vilyuchinsk,52.9306,158.4028,5.15,72,80,15.46,RU,1712791197
219,timimoun,29.2639,0.231,22.21,11,0,4.12,DZ,1712791197
220,luderitz,-26.6481,15.1594,19.93,56,0,5.56,NA,1712791197
221,sherwood,34.8151,-92.2243,18.97,89,100,9.39,US,1712791037
222,kolwezi,-10.7148,25.4667,17.24,98,99,1.48,CD,1712791197
223,maryport,54.7143,-3.4951,11.73,99,100,4.92,GB,1712791198
224,fortaleza,-3.7227,-38.5247,28.07,78,20,0.51,BR,1712790901
225,arkadak,51.9326,43.4978,12.35,92,1,3.12,RU,1712791198
226,kansanshi,-12.0951,26.4273,17.77,96,100,1.27,ZM,1712791198
227,palmas,-10.2128,-48.3603,27.93,83,20,2.57,BR,1712791025
228,hilo,19.7297,-155.09,27.38,68,100,4.12,US,1712790902
229,bel ombre,-4.6167,55.4167,25.91,94,75,2.57,SC,1712791198
230,gadzhiyevo,69.2551,33.3362,3.32,93,100,9.86,RU,1712791049
231,saudarkrokur,65.7461,-19.6394,-2.57,83,100,1.22,IS,1712791198
232,saint-pierre,-21.3393,55.4781,23.82,73,0,3.09,RE,1712791104
233,tura,25.5198,90.2201,21.99,36,54,1.49,IN,1712791020
234,sao paulo de olivenca,-3.3783,-68.8725,24.72,97,100,1.19,BR,1712791198
235,midvagur,62.0511,-7.1939,6.46,87,100,12.35,FO,1712791020
236,campo formoso,-10.5075,-40.3214,23.1,79,25,2.36,BR,1712791199
237,aral,40.5156,81.2636,14.98,92,6,3.62,CN,1712791199
238,verkh-chebula,56.0308,87.6218,-3.24,82,93,2.88,RU,1712791199
239,archangelos,36.2149,28.1149,16.99,78,0,1.43,GR,1712791096
240,port mathurin,-19.6833,63.4167,26.61,80,31,5.67,MU,1712791013
241,tabas,33.5959,56.9244,25.52,18,98,2.1,IR,1712791199
242,nadi,-17.8,177.4167,30.0,66,20,5.14,FJ,1712791070
243,howard springs,-12.497,131.047,24.9,64,100,3.13,AU,1712791199
244,lucheng,31.2336,117.2806,15.19,87,100,1.8,CN,1712791199
245,richards bay,-28.783,32.0377,19.93,81,65,9.13,ZA,1712791199
246,sanctuary point,-35.1114,150.629,20.42,59,3,3.73,AU,1712791199
247,saladas,-28.2538,-58.6259,19.49,96,100,6.46,AR,1712791200
248,aswan,24.0934,32.907,21.74,28,34,5.58,EG,1712791200
249,hamburg,53.55,10.0,8.67,83,0,3.6,DE,1712791038
250,palikir - national government center,6.9248,158.1611,27.47,94,100,5.14,FM,1712791200
251,lautoka,-17.6167,177.4667,29.92,66,20,5.14,FJ,1712791200
252,nikolayevsk-on-amure,53.1406,140.73,4.98,64,58,1.53,RU,1712791200
253,alofi,-19.0595,-169.9187,28.94,74,75,7.2,NU,1712791023
254,agde,43.3108,3.4758,13.02,44,0,6.17,FR,1712791200
255,palasa,18.7667,84.4167,25.28,65,4,2.07,IN,1712791200
256,punxsutawney,40.9437,-78.9709,18.12,84,94,0.45,US,1712791200
257,novofedorivka,46.1713,32.3178,13.41,57,0,1.61,UA,1712791200
258,broken hill,-31.95,141.4333,13.25,69,0,5.68,AU,1712790974
259,zhuanghe,39.7008,122.9911,8.52,85,76,3.3,CN,1712791201
260,holualoa,19.6228,-155.9522,24.91,80,40,5.14,US,1712791201
261,chikwawa,-16.0335,34.8009,26.45,73,69,0.82,MW,1712791201
262,puerto aysen,-45.4,-72.7,5.6,96,0,1.17,CL,1712791201
263,mitsamiouli,-11.3847,43.2844,28.68,80,86,3.91,KM,1712791201
264,maintirano,-18.0667,44.0167,27.34,73,100,2.26,MG,1712791202
265,mossel bay,-34.1831,22.146,14.96,74,100,3.91,ZA,1712791202
266,heniches'k,46.1759,34.8034,13.03,57,2,4.8,UA,1712791202
267,chonchi,-42.6128,-73.8092,10.56,78,0,0.7,CL,1712790990
268,kirakira,-10.4544,161.9205,30.1,61,83,2.45,SB,1712791202
269,slave lake,55.2834,-114.769,5.99,52,0,2.06,CA,1712791144
270,honolulu,21.3069,-157.8583,27.9,64,40,6.71,US,1712790604
271,ingeniero jacobacci,-41.3427,-69.5448,10.0,25,40,6.55,AR,1712791203
272,lihue,21.9789,-159.3672,28.58,62,0,3.6,US,1712790957
273,port sudan,19.6175,37.2164,24.15,62,8,4.31,SD,1712791203
274,mabaruma,8.2,-59.7833,25.85,78,7,1.87,GY,1712791203
275,concepcion,-36.827,-73.0498,11.38,76,81,1.06,CL,1712791035
276,arraial do cabo,-22.9661,-42.0278,25.4,87,0,4.41,BR,1712790953
277,mount isa,-20.7333,139.5,19.87,34,45,3.6,AU,1712791052
278,copala,16.65,-98.9833,27.97,63,67,4.72,MX,1712791203
279,fortuna,40.5982,-124.1573,16.63,79,0,7.2,US,1712791204
280,almenara,-16.1836,-40.6944,23.97,94,63,1.41,BR,1712791011
281,la passe,45.5549,-0.8967,12.21,81,97,2.01,FR,1712791140
282,agryz,56.5203,52.9942,1.67,92,61,0.78,RU,1712791204
283,tieli,46.95,128.05,8.5,51,60,4.47,CN,1712791075
284,tsetserleg,47.475,101.4542,2.71,79,96,2.12,MN,1712791204
285,tazacorte,28.629,-17.9293,19.54,77,100,6.69,ES,1712791204
286,bodo,67.28,14.405,5.02,94,75,12.86,NO,1712790970
287,manokwari,-0.8667,134.0833,26.15,83,100,2.58,ID,1712791204
288,citrus springs,28.9975,-82.4707,27.97,75,100,0.0,US,1712791205
289,rurrenabaque,-14.4413,-67.5278,27.49,76,77,1.36,BO,1712791205
290,codrington,-38.2667,141.9667,14.39,69,89,4.82,AU,1712791010
291,ribeira brava,32.65,-17.0667,20.35,24,35,3.9,PT,1712791205
292,dobresti,46.85,22.3,13.21,91,89,1.82,RO,1712791205
293,malanje,-9.5402,16.341,18.88,97,41,1.26,AO,1712791205
294,along,28.1667,94.7667,12.7,86,0,0.32,IN,1712791205
295,tazovsky,67.4667,78.7,-31.59,100,59,2.63,RU,1712791205
296,kirensk,57.7853,108.1119,2.76,98,100,3.58,RU,1712791205
297,laibin,23.7,109.2667,20.79,98,100,1.03,CN,1712791205
298,okha,53.5739,142.9478,1.2,73,13,2.09,RU,1712791205
299,atvidaberg,58.2015,15.9977,6.33,63,69,5.53,SE,1712791206
300,tham phannara,8.4204,99.3952,24.49,84,100,1.21,TH,1712791206
301,ust-nera,64.5667,143.2,-10.25,92,84,3.2,RU,1712791006
302,tyukhtet,56.5389,89.3011,-6.05,89,78,1.84,RU,1712791206
303,saint-paul,-21.0096,55.2707,24.06,74,68,2.11,RE,1712791206
304,la'ie,21.6477,-157.9253,28.98,72,43,3.13,US,1712791206
305,karonga,-9.9333,33.9333,23.59,85,84,1.43,MW,1712791206
306,champerico,14.3,-91.9167,34.3,63,98,3.38,GT,1712791206
307,qarqaraly,49.4058,75.4742,2.36,95,100,5.23,KZ,1712791077
308,inirida,3.8653,-67.9239,29.87,62,62,1.23,CO,1712791206
309,yeniseysk,58.4497,92.1703,-9.47,85,60,3.13,RU,1712791053
310,burumburum,11.3911,8.7234,28.0,21,44,2.77,NG,1712791207
311,wanxian,30.8039,108.3897,15.75,95,98,1.27,CN,1712791207
312,mil'kovo,55.6078,37.7956,15.19,91,38,3.24,RU,1712791207
313,berbera,10.4396,45.0143,27.71,79,29,1.21,SO,1712791207
314,vadso,70.0744,29.7487,4.09,87,100,3.09,NO,1712791017
315,hithadhoo,-0.6,73.0833,29.44,73,83,3.5,MV,1712791007
316,sao mateus,-18.7161,-39.8589,24.29,87,5,1.52,BR,1712791207
317,bibir hat,22.6873,91.7853,26.95,28,14,1.97,BD,1712791207
318,janze,47.9591,-1.4983,11.9,91,100,3.84,FR,1712791207
319,an nuhud,12.7,28.4333,24.49,9,2,6.37,SD,1712791207
320,sampit,-2.5333,112.95,23.66,99,98,0.64,ID,1712791166
321,kristiansund,63.1115,7.732,5.36,75,75,5.14,NO,1712791025
322,badger,64.8,-147.5333,7.14,41,20,2.57,US,1712791023
323,khanty-mansiysk,61.0042,69.0019,-9.94,57,0,3.0,RU,1712791208
324,castillos,-34.1667,-53.8333,14.62,61,74,5.21,UY,1712791208
325,katsuren-haebaru,26.3369,127.8719,22.43,77,20,5.66,JP,1712790941
326,stung treng,13.5259,105.9683,22.88,65,4,1.02,KH,1712791208
327,es castell,39.8795,4.2854,15.38,51,20,6.69,ES,1712791208
328,zhalantun,48.0,122.7167,7.7,44,34,0.81,CN,1712791208
329,xai-xai,-25.0519,33.6442,22.98,74,90,6.63,MZ,1712791208
330,daru,-9.0763,143.2092,27.74,85,88,2.91,PG,1712791209
331,taoudenni,22.6783,-3.9836,32.34,11,0,4.95,ML,1712791209
332,harper,4.375,-7.7169,27.84,79,85,3.22,LR,1712791209
333,coquimbo,-29.9533,-71.3436,13.85,100,100,3.09,CL,1712791114
334,salekhard,66.53,66.6019,-28.67,100,83,0.89,RU,1712791059
335,elko,41.0002,-115.5012,17.58,27,22,4.47,US,1712790932
336,yung shue wan,22.2333,114.1167,23.75,81,68,1.34,HK,1712791209
337,polyarnyy,69.1989,33.4478,3.19,92,100,10.16,RU,1712791209
338,tabou,4.423,-7.3528,27.83,79,84,2.96,CI,1712791209
339,susuman,62.7833,148.1667,-15.57,93,88,0.89,RU,1712791209
340,palma sola,-23.9634,-64.2987,20.44,85,98,2.83,AR,1712791210
341,kisangani,0.5167,25.2,21.7,98,82,1.55,CD,1712791136
342,tonekabon,36.8163,50.8738,14.23,95,100,1.26,IR,1712791210
343,nykobing sjaelland,55.9249,11.6711,7.19,84,95,7.55,DK,1712791210
344,richmond,37.5538,-77.4603,21.69,77,100,7.2,US,1712791186
345,igarka,67.4667,86.5833,-29.99,98,27,3.58,RU,1712791210
346,bulayevo,54.9056,70.4439,-2.12,96,79,3.11,KZ,1712791210
347,alice springs,-23.7,133.8833,16.23,41,10,2.68,AU,1712791014
348,gizo,-8.103,156.8419,28.45,76,99,2.3,SB,1712791027
349,saint-joseph,-21.3667,55.6167,23.21,75,74,2.05,RE,1712791211
350,ha'il,27.5219,41.6907,17.01,34,0,1.03,SA,1712791211
351,crane,31.3974,-102.3501,22.09,16,0,8.32,US,1712791028
352,childress,34.4264,-100.204,22.14,26,0,7.2,US,1712790966
353,adam,22.3756,57.5233,27.9,43,88,4.66,OM,1712791211
354,ulenje,-8.9333,33.6833,14.49,94,75,1.19,TZ,1712791211
355,santiago do cacem,38.0169,-8.6948,16.13,65,72,2.61,PT,1712791211
356,kone,-21.0595,164.8658,24.84,95,99,1.75,NC,1712791211
357,aykhal,66.0,111.5,-25.84,98,74,7.82,RU,1712791211
358,nikfer,37.4054,29.1373,12.39,60,0,1.65,TR,1712791211
359,kirov,58.5966,49.6601,0.88,93,29,2.24,RU,1712791142
360,port-vila,-17.7338,168.3219,30.78,66,20,2.06,VU,1712791212
361,berezovo,63.9381,65.0419,-24.04,100,53,1.74,RU,1712791212
362,sept-iles,50.2001,-66.3821,1.24,79,20,3.09,CA,1712791204
363,vorkuta,67.5,64.0,-24.7,100,100,1.95,RU,1712791212
364,villa gesell,-37.2639,-56.973,14.47,53,71,8.21,AR,1712791212
365,carnarvon,-24.8667,113.6333,23.56,57,6,4.15,AU,1712791212
366,yorkton,51.2167,-102.4677,11.91,37,20,11.32,CA,1712791178
367,santa ana,33.7456,-117.8678,31.6,36,0,4.63,US,1712791043
368,zheleznodorozhnyy,55.7503,38.0042,15.2,93,48,3.13,RU,1712791133
369,yemva,62.59,50.8594,1.42,100,100,2.67,RU,1712791212
370,armacao de buzios,-22.7469,-41.8817,26.03,88,0,4.54,BR,1712791212
371,palmer,42.1584,-72.3287,15.31,67,100,2.57,US,1712791212
372,conceicao das alagoas,-19.9147,-48.3883,27.88,65,62,1.53,BR,1712791213
373,genhe,50.7833,121.5167,-0.82,61,50,0.52,CN,1712791050
374,dzhangala,49.2167,50.3333,12.88,90,7,4.94,KZ,1712791213
375,fisterra,42.9049,-9.2629,12.64,73,100,3.98,ES,1712791213
376,dalandzadgad,43.5708,104.425,11.5,30,93,3.45,MN,1712791213
377,chibougamau,49.9168,-74.3659,2.91,97,100,2.21,CA,1712791038
378,peniche,39.3558,-9.3811,16.17,62,100,5.87,PT,1712791082
379,murghob,38.1702,73.9667,-6.26,73,100,2.62,TJ,1712791213
380,tannum sands,-23.9504,151.3693,21.94,49,0,2.57,AU,1712791213
381,kofele,7.0667,38.7833,10.93,90,21,3.32,ET,1712791213
382,homosassa springs,28.8036,-82.5759,28.41,74,100,0.45,US,1712790950
383,port blair,11.6667,92.75,28.12,79,100,2.75,IN,1712791076
384,kingston,17.997,-76.7936,29.53,72,20,10.29,JM,1712790993
385,pavlogradka,54.2024,73.5592,0.3,96,100,4.78,RU,1712791214
386,port moresby,-9.4431,147.1797,27.86,75,93,3.92,PG,1712790904
387,slonim,53.0867,25.3219,10.09,70,100,4.77,BY,1712791214
388,columbia,34.0007,-81.0348,24.17,62,20,5.66,US,1712790921
389,remire-montjoly,4.9167,-52.2667,28.02,83,75,3.6,GF,1712791136
390,chernyshevskiy,63.0128,112.4714,-15.72,86,85,3.34,RU,1712791128
391,lerwick,60.1545,-1.1494,8.0,98,100,7.61,GB,1712791214
392,severo-yeniseyskiy,60.3725,93.0408,-19.43,100,100,1.38,RU,1712791144
393,kavaratti,10.5669,72.642,28.79,69,67,3.49,IN,1712791018
394,emerald,-23.5333,148.1667,20.75,34,0,6.82,AU,1712791200
395,hirara,24.8,125.2833,22.92,94,75,4.63,JP,1712791214
396,dingzhou,38.5131,114.9956,11.28,68,0,0.87,CN,1712791003
397,mount gambier,-37.8333,140.7667,14.6,67,100,3.13,AU,1712791215
398,xihe,31.6864,113.4659,14.57,94,55,1.81,CN,1712791215
399,glace bay,46.1969,-59.957,1.14,78,0,4.63,CA,1712791215
400,kharp,66.8014,65.8081,-29.05,98,37,2.05,RU,1712791215
401,vernon,50.2581,-119.2691,17.94,30,78,1.54,CA,1712791132
402,altamira,-3.2033,-52.2064,24.52,95,94,0.98,BR,1712791006
403,sao gabriel da cachoeira,-0.1303,-67.0892,25.22,95,100,1.01,BR,1712791215
404,debark',13.1561,37.8981,14.44,18,19,1.35,ET,1712791215
405,usinsk,65.9939,57.5281,-16.63,94,79,3.58,RU,1712791215
406,fukuecho,32.6881,128.8419,15.2,82,75,1.54,JP,1712791215
407,dubbo,-32.25,148.6167,14.07,62,0,3.6,AU,1712791215
408,lorengau,-2.0226,147.2712,27.11,81,100,1.05,PG,1712791215
409,maba,24.6841,113.5984,19.99,23,97,0.9,CN,1712791216
410,amungan,15.3652,119.9582,27.64,69,46,2.27,PH,1712791216
411,walvis bay,-22.9575,14.5053,15.54,85,1,1.64,NA,1712791026
412,parauapebas,-6.0675,-49.9022,24.58,95,93,0.45,BR,1712791216
413,rocky mountain house,52.3668,-114.9188,10.06,22,55,2.06,CA,1712791207
414,paranagua,-25.52,-48.5092,22.81,96,16,0.3,BR,1712791032
415,kapit,2.0167,112.9333,22.95,99,62,0.43,MY,1712791216
416,weno,7.4515,151.8468,27.97,94,100,3.09,FM,1712791048
417,ponta delgada,37.7333,-25.6667,18.44,94,75,4.63,PT,1712791216
418,monte alegre,-2.0078,-54.0692,25.06,91,55,1.19,BR,1712791216
419,pisco,-13.7,-76.2167,23.03,78,0,5.66,PE,1712791216
420,jalai nur,49.45,117.7,4.47,78,100,2.48,CN,1712791216
421,lilongwe,-13.9669,33.7873,19.66,86,16,0.79,MW,1712791217
422,nadym,65.5333,72.5167,-30.58,100,72,0.65,RU,1712791217
423,sinabang,2.4803,96.3801,26.17,88,98,1.78,ID,1712791217
424,zaozersk,69.4005,32.4476,3.11,95,100,7.51,RU,1712791217
425,conceicao do araguaia,-8.2578,-49.2647,24.9,92,58,0.21,BR,1712791217
426,santa marta,11.2408,-74.199,32.03,60,20,6.26,CO,1712790979
427,labrador city,52.9463,-66.9114,2.95,32,0,2.06,CA,1712791199
428,chiras,35.4167,65.9823,2.81,65,5,4.05,AF,1712791217
429,sumbe,-11.2061,13.8437,25.98,85,57,2.71,AO,1712791217
430,sumbuya,7.6467,-11.9611,26.04,86,84,1.48,SL,1712791218
431,juneau,58.3019,-134.4197,6.34,90,100,8.75,US,1712791022
432,hurghada,27.2574,33.8129,20.39,38,16,4.7,EG,1712791202
433,kintampo,8.0563,-1.7306,26.34,73,100,2.86,GH,1712791218
434,happy valley-goose bay,53.3168,-60.3315,3.17,52,0,1.54,CA,1712791212
435,vila velha,-20.3297,-40.2925,26.08,92,75,1.03,BR,1712790729
436,gubkinskiy,64.434,76.5026,-31.38,100,29,2.14,RU,1712791218
437,dihok,36.8695,42.994,12.25,88,100,2.84,IQ,1712791218
438,luganville,-15.5333,167.1667,29.21,73,44,1.01,VU,1712791014
439,al ghayzah,16.2079,52.176,26.25,74,4,3.04,YE,1712791219
440,san patricio,28.017,-97.5169,27.05,31,0,9.28,US,1712791155
441,malpica,43.3228,-8.8105,11.66,74,98,1.92,ES,1712791219
442,stornoway,58.2093,-6.3865,10.98,94,100,6.17,GB,1712791038
443,qui nhon,13.7667,109.2333,23.68,89,45,3.08,VN,1712791219
444,drahichyn,52.1874,25.1597,11.55,66,100,5.9,BY,1712791219
445,peace river,56.2501,-117.286,12.17,20,75,2.06,CA,1712791192
446,kayangel,8.0823,134.7173,28.06,76,75,6.17,PW,1712791219
447,yuzhno-kurilsk,44.0306,145.8556,4.65,76,23,2.88,RU,1712791025
448,mbandaka,0.0487,18.2603,24.58,79,64,1.03,CD,1712791220
449,littlefield,33.9173,-102.3249,18.32,23,0,7.4,US,1712791220
450,mogocha,53.7333,119.7667,-1.25,67,19,0.62,RU,1712791220
451,ryotsu-minato,38.0833,138.4333,10.78,54,51,1.19,JP,1712791220
452,san pedro pochutla,15.7333,-96.4667,30.75,47,29,3.11,MX,1712791035
453,i-n-salah,27.1935,2.4607,25.37,22,0,6.75,DZ,1712791221
454,rizokarpaso,35.6,34.375,17.19,80,9,2.49,CY,1712790975
455,banfora,10.6333,-4.7667,30.55,48,81,1.15,BF,1712791221
456,theunissen,-28.411,26.7011,10.07,67,0,3.79,ZA,1712791221
457,banda aceh,5.5577,95.3222,27.2,79,87,1.41,ID,1712791221
458,ujiie,36.6833,139.9667,10.45,60,27,1.66,JP,1712791221
459,ligaya,12.6599,120.8923,26.83,54,97,0.93,PH,1712791222
460,sao joao da barra,-21.6403,-41.0511,25.05,86,0,3.94,BR,1712791158
461,qiancheng,27.185,109.7654,16.96,97,100,0.81,CN,1712791222
462,bardai,11.65,7.2333,29.14,20,46,4.1,NG,1712791060
463,kapa'a,22.0752,-159.319,28.99,70,0,3.6,US,1712791025
464,holbaek,55.7167,11.7167,7.21,86,79,2.24,DK,1712791222
465,ar ruways,24.1103,52.7306,25.49,63,100,1.2,AE,1712791223
466,rockland,41.1668,-74.0496,17.81,73,90,0.45,US,1712791223
467,yuto,-23.6434,-64.4719,22.45,97,100,1.27,AR,1712791223
468,kalemie,-5.9475,29.1947,21.68,87,39,1.67,CD,1712791223
469,val-d'or,48.1002,-77.7828,13.05,50,40,1.54,CA,1712791223
470,ylitornio,66.3089,23.6773,1.58,91,93,4.99,FI,1712791223
471,sechura,-5.5569,-80.8222,26.53,62,80,6.79,PE,1712791223
472,bang mun nak,16.0278,100.3792,30.0,99,94,1.7,TH,1712791223
473,sao tome,0.3365,6.7273,28.42,80,87,3.28,ST,1712791224
474,bonthe,7.5264,-12.505,25.86,88,46,1.96,SL,1712791224
475,zhengjiatun,43.5064,123.5064,11.83,74,75,7.98,CN,1712791224
476,spring creek,40.7266,-115.5859,17.39,27,11,0.89,US,1712790924
477,glendive,47.1053,-104.7125,12.79,30,75,9.77,US,1712791224
478,tutoia,-2.7619,-42.2744,25.95,88,100,2.42,BR,1712791224
479,kaduy,59.2,37.15,13.52,92,100,4.83,RU,1712791224
480,san luis ixcan,15.7872,-91.095,36.91,28,16,1.08,GT,1712791224
481,oum hadjer,13.2954,19.6966,29.62,7,56,5.74,TD,1712791224
482,kokopo,-4.352,152.2633,26.08,87,100,1.58,PG,1712791224
483,diyadin,39.5406,43.6713,5.43,93,100,1.37,TR,1712791225
484,khandyga,62.6667,135.6,-4.78,90,99,2.15,RU,1712791225
485,pattaya,12.9333,100.8833,29.72,73,97,0.96,TH,1712791225
486,bela,25.9333,81.9833,27.31,24,67,3.73,IN,1712791225
487,juan griego,11.0817,-63.9655,26.46,78,18,6.24,VE,1712791225
488,blythe,33.6103,-114.5964,33.25,9,0,1.54,US,1712791225
489,boca suno,-0.7167,-77.1333,27.8,74,54,0.64,EC,1712791225
490,alliance,40.9153,-81.1059,15.72,94,100,2.82,US,1712791132
491,cadale,2.7603,46.3222,28.9,74,21,4.93,SO,1712791226
492,boguchany,58.3814,97.4531,-4.52,91,100,2.46,RU,1712791226
493,messina,38.1933,15.5497,16.21,74,75,5.66,IT,1712791089
494,sindirgi,39.2413,28.1784,10.19,97,7,1.79,TR,1712791226
495,touros,-5.1989,-35.4608,26.44,84,100,2.54,BR,1712791029
496,les sables-d'olonne,46.6667,-1.8333,11.44,89,100,3.37,FR,1712791226
497,nema,57.5067,50.5011,-1.4,95,72,1.69,RU,1712791226
498,manado,1.487,124.8455,26.43,89,20,1.03,ID,1712791226
499,berezovyy,51.6667,135.7,6.8,47,18,2.41,RU,1712791226
500,tralee,52.2704,-9.7026,12.51,93,100,4.16,IE,1712791227
501,nizhniy kuranakh,58.8353,125.4869,-1.66,85,24,1.8,RU,1712791227
502,charters towers,-20.1,146.2667,21.05,34,51,5.67,AU,1712791011
503,zyryanskoye,56.8306,86.6258,-5.83,82,57,2.67,RU,1712791227
504,akureyri,65.6835,-18.0878,-2.04,80,0,3.6,IS,1712791066
505,east ballina,-28.8667,153.5833,21.56,65,0,5.28,AU,1712791227
506,tchintabaraden,15.8969,5.7985,32.05,17,63,2.86,NE,1712791227
507,entebbe,0.0644,32.4469,20.97,84,98,2.06,UG,1712791227
508,salym,60.0625,71.4789,-9.73,93,100,2.04,RU,1712791009
509,bethanie,-26.4833,17.15,19.65,38,0,2.09,NA,1712791227
510,akrehamn,59.2667,5.1833,6.9,93,100,10.29,NO,1712791227
511,colonia,50.9333,6.95,10.46,72,0,1.54,DE,1712791196
512,tateyama,34.9833,139.8667,13.55,67,67,3.6,JP,1712791228
513,klaksvik,62.2266,-6.589,6.51,95,100,12.84,FO,1712791046
514,nieuw amsterdam,5.8833,-55.0833,27.01,89,20,1.03,SR,1712791228
515,las tablas,7.7667,-80.2833,27.87,99,80,2.85,PA,1712791228
516,rabaul,-4.1967,152.1721,26.78,84,100,2.13,PG,1712791228
517,gulf shores,30.246,-87.7008,20.59,94,75,6.17,US,1712791228
518,rio gallegos,-51.6226,-69.2181,7.62,67,61,7.07,AR,1712791078
519,canutama,-6.5339,-64.3831,24.61,97,45,1.02,BR,1712791228
520,pacific grove,36.6177,-121.9166,25.36,73,0,3.58,US,1712791004
521,khovd,48.0056,91.6419,4.46,47,100,2.59,MN,1712791229
522,dazhou,31.2159,107.5009,13.7,94,100,1.83,CN,1712791229
523,buala,-8.145,159.5921,29.48,74,100,1.38,SB,1712791012
524,talnakh,69.4865,88.3972,-32.11,100,82,1.77,RU,1712791172
525,masterton,-40.9597,175.6575,22.28,44,81,5.73,NZ,1712791065
526,olinda,-8.0089,-34.8553,26.85,94,40,1.54,BR,1712791086
527,egilsstadir,65.2653,-14.3948,2.95,75,75,4.12,IS,1712791229
528,yemetsk,63.4721,41.7941,3.89,95,100,5.37,RU,1712791229
529,morehead city,34.7229,-76.726,22.01,74,0,3.09,US,1712791035
530,sur,22.5667,59.5289,29.16,52,92,1.75,OM,1712791176
531,aden,12.7794,45.0367,27.26,80,0,4.31,YE,1712791014
532,sibay,52.7181,58.6658,4.56,89,65,1.79,RU,1712791230
533,liss,51.044,-0.8939,12.81,97,100,6.92,GB,1712791230
534,union,40.6334,-74.2663,19.26,74,100,5.14,US,1712791230
535,pangody,65.85,74.4859,-31.23,100,95,1.05,RU,1712791011
536,gisborne,-38.6533,178.0042,21.79,63,84,5.63,NZ,1712791028
537,worland,44.0169,-107.9554,11.45,35,0,5.14,US,1712791230
538,cockburn town,21.4612,-71.1419,25.06,70,15,10.51,TC,1712791230
539,bluewater,34.1745,-114.2713,32.55,9,5,5.32,US,1712791230
540,tippi,7.2,35.45,20.17,85,87,1.51,ET,1712791230
541,itoman,26.1247,127.6694,22.43,75,20,5.14,JP,1712791084
542,nyurba,63.2842,118.3319,-6.84,95,100,4.87,RU,1712791013
543,kilindoni,-7.9139,39.6668,27.71,82,100,1.97,TZ,1712791231
544,kargil,34.5667,76.1,-8.44,82,100,0.59,IN,1712791231
545,markovo,57.3206,107.0881,3.05,97,100,4.6,RU,1712791078
546,giddings,30.1827,-96.9364,20.71,56,100,3.09,US,1712791140
547,baiti,13.745,-14.7482,30.28,28,0,5.99,SN,1712791231
548,ubari,26.5921,12.7805,24.3,17,100,6.67,LY,1712791231
549,suva,-18.1416,178.4415,29.71,74,75,4.12,FJ,1712791231
550,koton-karfe,8.1,6.8,31.04,45,98,1.67,NG,1712791231
551,kerikeri,-35.2268,173.9474,21.06,92,100,6.76,NZ,1712791232
552,igrim,63.1906,64.4162,-16.9,97,8,1.61,RU,1712791232
553,tommot,58.9564,126.2925,-4.54,90,78,1.27,RU,1712791232
554,logan,41.7355,-111.8344,16.69,39,75,3.6,US,1712791189
555,pocoes,-14.5297,-40.3653,20.26,97,95,2.17,BR,1712791232
556,puerto deseado,-47.7503,-65.8938,8.4,65,6,2.65,AR,1712791232
557,vilyuysk,63.7553,121.6247,-1.67,93,100,3.13,RU,1712791232
558,onguday,50.75,86.15,2.2,88,96,0.9,RU,1712791082
559,moberly,39.4184,-92.4382,18.57,39,100,4.63,US,1712791232
560,patan,27.6667,85.3333,13.21,62,20,2.06,NP,1712791232
561,dryden,49.7833,-92.7503,13.16,41,40,1.54,CA,1712791232
562,nyala,12.05,24.8833,26.1,10,0,4.72,SD,1712791232
563,asaita,11.5636,41.4394,30.62,54,0,3.64,ET,1712791233
564,paracuru,-3.41,-39.0306,28.39,89,100,3.33,BR,1712791233
